[
    {
        "place": "อู่ฉลองบริการ",
        "address": "100 หมู่ที่ 8 ตำบลพรหมณี ต.พรหมมณี อ.เมือง จังหวัดนครนายก 26000",
        "tel": "0-3731-3442",
        "lat": 14.229720,
        "lng": 101.179066
    },
    {
        "place": "บจ.ดีที.มอเตอร์",
        "address": "129/14 หมู่ที่ 1 ตำบลสามง่าม อำเภอดอนตูม จังหวัดนครปฐม 73150",
        "tel": "0-3496-8790,08-9770-0466",
        "lat": 13.960240,
        "lng": 100.077122
    },
    {
        "place": "บจ.ธนากร 168",
        "address": "74/2 ม.2 ต.ลำพยา ต.ลำพยา อ.เมือง จังหวัดนครปฐม 73000",
        "tel": "0-3421-8844-5",
        "lat": 13.810862,
        "lng": 100.021313
    },
    {
        "place": "บจ.มาลัยแมนออโต้เทคนิค",
        "address": "77 หมู่ที่ 2 ถนนมาลัยแมน ต.วังตะกุ อ.เมือง จังหวัดนครปฐม 73000",
        "tel": "0-3426-1539-41",
        "lat": 13.848115,
        "lng": 100.022698
    },
    {
        "place": "บจ.สิริยนต์ ออโต้อินดัสตรี้ (รถเล็ก)",
        "address": "159 ม.11 ต.มาบแค ต.มาบแค อ.เมือง จังหวัดนครปฐม 73000",
        "tel": "0-3497-6260-2,0-3430-0328-9",
        "lat": 13.873782,
        "lng": 100.067395
    },
    {
        "place": "บจ.สิริยนต์ ออโต้อินดัสตรี้ (รถใหญ่)",
        "address": "159 หมู่ 11 ต.มาบแค อ.เมืองนครปฐม จังหวัดนครปฐม 73000",
        "tel": "0-3497-6260-2,0-3430-0328-9",
        "lat": 13.874157,
        "lng": 100.067309
    },
    {
        "place": "หจก.โยธินกระจกรถยนต์",
        "address": "265/8 ม.9 ถ.เพชรเกษม ต.ลำพยา ต.ลำพยา อ.เมือง จังหวัดนครปฐม 73000",
        "tel": "0-3425-9776,0-3421-9475",
        "lat": 13.805225,
        "lng": 100.026964
    },
    {
        "place": "อู่ประณีตยนต์",
        "address": "76/1 ม.4 ต.ธรรมศาลา ต.ธรรมศาลา อ.เมือง จังหวัดนครปฐม 73000",
        "tel": "0-3439-5390-1,08-1315-5038",
        "lat": 13.819701,
        "lng": 100.097809
    },
    {
        "place": "อู่ประทินการช่าง",
        "address": "199/1 ม.9 ต.ลำพยา อ.เมือง จังหวัดนครปฐม 73000",
        "tel": "0-3425-5081",
        "lat": 13.803748,
        "lng": 100.023156
    },
    {
        "place": "อู่วินวรายุส",
        "address": "6 หมู่ที่ 9 ถนนเพชรเกษม ต.ลำพยา อ.เมือง จังหวัดนครปฐม 73000",
        "tel": "0-3425-4492,08-1617-1512",
        "lat": 13.801114,
        "lng": 100.023681
    },
    {
        "place": "อู่สุขเกษม",
        "address": "79 ม.16 ถ.มาลัยแมน ต.ห้วยขวาง อ.กำแพงแสน จังหวัดนครปฐม 73140",
        "tel": "0-3497-0748 ถึง 50,08-1941-5775",
        "lat": 13.937981,
        "lng": 100.003758
    },
    {
        "place": "อู่สุรชัยนครปฐม",
        "address": "672 ถ.ราชมรรคา ต.ห้วยจรเข้ ต.ห้วยจรเข้ อ.เมือง จังหวัดนครปฐม 73000",
        "tel": "0-3425-2180",
        "lat": 13.812375,
        "lng": 100.060941
    },
    {
        "place": "อู่เรืองชัย",
        "address": "165 ม.2 ถ.เพชรเกษม ต.สระกระเทียม อ.เมือง จังหวัดนครปฐม 73000",
        "tel": "0-3420-0274-6",
        "lat": 13.789425,
        "lng": 99.946889
    },
    {
        "place": "บจ.ศาลายา ออโต้ บอดี้ รีแพร์",
        "address": "18/12 หมู่ที่ 2 ตำบลศาลายา อำเภอพุทธมณฑล จังหวัดนครปฐม 73170",
        "tel": "0-3424-6239,09-3782-1659",
        "lat": 13.830341,
        "lng": 100.301499
    },
    {
        "place": "บจ.อู่สายสี่",
        "address": "98/1 หมู่ที่ 7 ถนนพุทธมณฑลสาย 4 ตำบลกระทุ่มล้ม อำเภอสามพราน จังหวัดนครปฐม 73220",
        "tel": "0-2814-1565,0-2814-0500",
        "lat": 13.738285,
        "lng": 100.329350
    },
    {
        "place": "ร้านสายสี่ กระจกโค้ง",
        "address": "60/11 หมู่ 9 ถนนพุทธมณฑลสาย 4 ต.กระทุ่มล้ม อ.สามพราน จังหวัดนครปฐม 73220",
        "tel": "0-2888-5940,08-1312-2436,08-6533-5844",
        "lat": 13.752986,
        "lng": 100.328855
    },
    {
        "place": "หจก.บุญส่งคาร์แคร์",
        "address": "74 ม.10 ถ.พุทธมณฑลสาย 5 ต.ไร่ขิง อ.สามพราน จังหวัดนครปฐม 73160",
        "tel": "0-2420-1639,0-2420-3193",
        "lat": 13.746988,
        "lng": 100.276535
    },
    {
        "place": "บจ.บางกอกเพ้นท์ช็อป",
        "address": "79/9 ม.6 ถ.พุทธมณฑล สาย4 ต.ศาลายา อ.พุทธมณฑล จังหวัดนครปฐม 73170",
        "tel": "02-8885540-2,081-3148925",
        "lat": 13.769849,
        "lng": 100.329966
    },
    {
        "place": "พี.เอ็น.เซอร์วิส",
        "address": "157/2 ม.2 ต.ชัยเกษม ต.ชัยเกษม อ.บางสะพาน จังหวัดประจวบคีรีขันธ์ 77190",
        "tel": "08-1300-8008,08-1907-1263,08-1303-0800",
        "lat": 11.371917,
        "lng": 99.499592
    },
    {
        "place": "ร้านอู่ชนะ",
        "address": "5/109 ซ.หมู่บ้านเขาน้อย ต.หัวหิน อ.หัวหิน จังหวัดประจวบคีรีขันธ์ 77110",
        "tel": "0-3251-5159",
        "lat": 12.583365,
        "lng": 99.949193
    }
]