[
    {
        "place": "บจ.ธนยนต์ กรุ๊ป",
        "address": "398/2 ถนนปราจีนอนุสรณ์ ซอย 5 ต.หน้าเมือง อ.เมืองปราจีนบุรี จังหวัดปราจีนบุรี 25000",
        "tel": "08-8912-5448,0-3721-1472",
        "lat": 14.047901,
        "lng": 101.367084
    },
    {
        "place": "บจ.พีเอส การาจ คาร์ส",
        "address": "88 หมู่ที่ 8 ตำบลโพธิ์งาม ต.โพธิ์งาม อ.ประจันตคาม จังหวัดปราจีนบุรี 25130",
        "tel": "0-3748-0765 , 09-2608-7474",
        "lat": 14.085783,
        "lng": 101.509429
    },
    {
        "place": "บจ.สมพงษ์การช่าง 1988",
        "address": "91/2 หมู่ที่ 2 ถนนระเบาะไผ่-ศรีมหาโพธิ ต.หนองโพรง อ.ศรีมหาโพธิ จังหวัดปราจีนบุรี 25140",
        "tel": "0-3721-8923-24",
        "lat": 13.936608,
        "lng": 101.513314
    },
    {
        "place": "บจ.อู่สมาร์ท 304",
        "address": "440 ม.3 ต.กรอกสมบูรณ์ อ.ศรีมหาโพธิ จังหวัดปราจีนบุรี 25140",
        "tel": "08-9121-1112, 08-6511-7422",
        "lat": 13.891306,
        "lng": 101.575024
    },
    {
        "place": "หจก.โอ แอนด์ ยู การาจ",
        "address": "214 หมู่ที่ 7 ตำบลโคกไม้ลาย ต.โคกไม้ลาย อ.เมืองปราจีนบุรี จังหวัดปราจีนบุรี 25230",
        "tel": "08-2468-4304 , 08-6355-8594",
        "lat": 14.152060,
        "lng": 101.303209
    },
    {
        "place": "อู่กิจเจริญยนต์",
        "address": "262 หมู่ที่ 5 ถนนกบินทร์บุรี-นครราชสีมา ต.เมืองเก่า อ.กบินทร์บุรี จังหวัดปราจีนบุรี 25240",
        "tel": "0-3757-5252-3,08-1996-4635",
        "lat": 14.023145,
        "lng": 101.780493
    },
    {
        "place": "ซี.เจ.เค.แกลงบอดี้พาร์ท",
        "address": "325/5 ถนนสุขุมวิท ตำบลทางเกวียน อำเภอแกลง จังหวัดระยอง 21110",
        "tel": "0-3867-4789",
        "lat": 12.776635,
        "lng": 101.716076
    },
    {
        "place": "บจ.2 เค มาบตาพุด",
        "address": "23/1 หมู่ 1 ถนนสุขุมวิท ต.เนินพระ อ.เมืองระยอง จังหวัดระยอง 21150",
        "tel": "(038)694234-5",
        "lat": 12.701971,
        "lng": 101.189181
    },
    {
        "place": "บจ.ชัยณรงค์แกลง(2008)",
        "address": "174/4 ถนนบ้านบึง-แกลง ต.ทางเกวียน อ.แกลง จังหวัดระยอง 21110",
        "tel": "(038)677803",
        "lat": 12.835921,
        "lng": 101.628377
    },
    {
        "place": "บจ.ปลวกแดงกระจกรถยนต์ (สำนักงานใหญ่)",
        "address": "625/45-47 หมู่ที่ 1 ตำบลปลวกแดง อำเภอปลวกแดง จังหวัดระยอง 21140",
        "tel": "08-6600-9715",
        "lat": 12.982999,
        "lng": 101.209766
    },
    {
        "place": "บจ.ระยองยนต์",
        "address": "103 ม.2 ซ.แหลมมะขาม ถ.บายพาส ต.ทับมา อ.เมือง จังหวัดระยอง 21000",
        "tel": "(038)808413-4,(038)021682",
        "lat": 12.704127,
        "lng": 101.225152
    },
    {
        "place": "บจ.แต้ล้งฮั้ว (ทีแอลเอช) 95 กรุ๊ป (สาขาสุขุมวิท)",
        "address": "135/12-14 ถนนสุขุมวิท ตำบลท่าประดู่ อำเภอเมืองระยอง จังหวัดระยอง 21000",
        "tel": "0-3880-0440-2,08-5366-9946",
        "lat": 12.720783,
        "lng": 101.224346
    },
    {
        "place": "บจ.แต้ล้งฮั้ว (ทีแอลเอช) 95 กรุ๊ป (สำนักงานใหญ่)",
        "address": "58/9-10 หมู่ที่ 8 ตำบลทับมา อำเภอเมืองระยอง จังหวัดระยอง 21000",
        "tel": "0-3802-6367-8,09-9152-9628",
        "lat": 12.720573,
        "lng": 101.224603
    },
    {
        "place": "บจ.ไทยคาร์กลาส",
        "address": "85/33-4 ม.1 ถ.บ้านแลง ต.เชิงเนิน อ.เมือง จังหวัดระยอง 21000",
        "tel": "(038)802233-4",
        "lat": 12.686802,
        "lng": 101.301148
    },
    {
        "place": "บจ.ไทยคาร์กลาส สาขามาบตาพุด",
        "address": "222 ถ.สุขุมวิท ต.มาบตาพุด อ.เมืองระยอง จังหวัดระยอง 21150",
        "tel": "(038) 691789-90",
        "lat": 12.722671,
        "lng": 101.153475
    },
    {
        "place": "ร้านสุพจน์กระจก 2003",
        "address": "55/46-48 ม.4 ถ.บายพาส 36 ต.เชิงเนิน อ.เมือง จังหวัดระยอง 21000",
        "tel": "(038)865082,(081)6504199",
        "lat": 12.694901,
        "lng": 101.292324
    },
    {
        "place": "หจก.อารี ออโต้เพ้นท์",
        "address": "123/5 ถนนสุขุมวิท ต.มาบตาพุด อ.เมืองระยอง จังหวัดระยอง 21150",
        "tel": "038-608420",
        "lat": 12.699347,
        "lng": 101.193092
    },
    {
        "place": "อู่สมปองการช่าง",
        "address": "2/1 ถ.เลียบคงคา 1 ต.เชิงเนิน อ.เมือง จังหวัดระยอง 21000",
        "tel": "(038)620187,(038)614492",
        "lat": 12.676332,
        "lng": 101.287640
    },
    {
        "place": "อู่เอ.วี.ออโต้ เซอร์วิส",
        "address": "34/4 หมู่ 1 ถนนระยอง-บ้านค่าย ต.หนองตะพาน อ.บ้านค่าย จังหวัดระยอง 21120",
        "tel": "038-018736,063-153-3915",
        "lat": 12.730381,
        "lng": 101.280676
    },
    {
        "place": "เจ.พี.แอร์ กระจกรถยนต์",
        "address": "28/27-28 ถนนบายพาส ตำบลเชิงเนิน อำเภอเมืองระยอง จังหวัดระยอง 21000",
        "tel": "0-3886-5052,0-3861-3888",
        "lat": 12.697225,
        "lng": 101.285475
    }
]