[
    {
        "place": "บจ.ถวิลยนต์กิจ (รถใหญ่)",
        "address": "191 ม.4 ต.หงส์น้ำสาคร ต.หางน้ำสาคร อ.มโนรมย์ จังหวัดชัยนาท 17110",
        "tel": "(056)431263-4",
        "lat": 15.294879,
        "lng": 100.193181
    },
    {
        "place": "ร้านชัยนาทกระจกรถยนต์ 2001 (สำนักงานใหญ่)",
        "address": "71/5 ถนนพหลโยธิน ต.บ้านกล้วย อ.เมือง จังหวัดชัยนาท 17000",
        "tel": "0-5641-2354",
        "lat": 15.192173,
        "lng": 100.127463
    },
    {
        "place": "อู่มีชัยยนต์",
        "address": "530 ม.4 ต.เขาท่าพระ ต.เขาพระ อ.เมือง จังหวัดชัยนาท 17000",
        "tel": "(056)421443,420818-9",
        "lat": 15.214127,
        "lng": 100.159720
    },
    {
        "place": "อู่เจริญยนต์2000",
        "address": "191/3 ม.4 ต.หางน้ำสาคร ต.หางน้ำสาคร อ.มโนรมย์ จังหวัดชัยนาท 17170",
        "tel": "(056)431631",
        "lat": 15.297256,
        "lng": 100.179798
    },
    {
        "place": "บจ.อู่เทคนิค",
        "address": "101 ม.9 ถ.พหลโยธิน ต.สันทราย ต.สันทราย อ.เมือง จังหวัดเชียงราย 57000",
        "tel": "(056)431631",
        "lat": 19.859470,
        "lng": 99.818033
    },
    {
        "place": "ร้านพรประเสริฐการช่าง",
        "address": "22/6 ม.13 ถ.พหลโยธิน ต.รอบเวียง อ.เมืองเชียงราย จังหวัดเชียงราย 57000",
        "tel": "0-5371-2095,08-9758-2739",
        "lat": 19.885989,
        "lng": 99.830825
    },
    {
        "place": "หจก.ธนัทยนตรกิจ",
        "address": "290 ม.3 ต.ป่าตึง ถ.ห้วยหินฝน-แม่จัน อ.แม่จัน จังหวัดเชียงราย 57110",
        "tel": "0-5366-0691-2",
        "lat": 20.160887,
        "lng": 99.854386
    },
    {
        "place": "หจก.อู่เอเซีย เชียงราย",
        "address": "116/4 ม.19 ถ.สันติ (ธ.กรุงธนฯย่อยห้าแยก) ต.เวียง อ.เมือง จังหวัดเชียงราย 57000",
        "tel": "(053)715065,748333",
        "lat": 19.914615,
        "lng": 99.845078
    },
    {
        "place": "หจก.เชียงราย วีอาร์มอเตอร์ (รถใหญ่)",
        "address": "372 ม.12 ต.นางแล อ.เมืองเชียงราย จังหวัดเชียงราย 57100",
        "tel": "-",
        "lat": 19.997561,
        "lng": 99.865128
    },
    {
        "place": "หจก.เชียงรายวี.อาร์.มอเตอร์ (รถเล็ก)",
        "address": "372 ม.8 ต.นางแล อ.เมือง ต.นางแล อ.เมือง จังหวัดเชียงราย 57100",
        "tel": "(053)705406-7,711308",
        "lat": 19.997884,
        "lng": 99.865085
    },
    {
        "place": "บจ.นครพิงค์เวอร์คช็อพ",
        "address": "259 ม.6 ถ.เชียงใหม่-ดอยสะเก็ด กม.4 ต.สันนาเม็ง อ.สันทราย จังหวัดเชียงใหม่ 50210",
        "tel": "(053)398541-2,491972,491777",
        "lat": 18.828650,
        "lng": 99.048751
    },
    {
        "place": "บจ.พี.เจ.ออโตเซอร์วิส",
        "address": "129 ม.1 ต.ไชยสถาน อ.สารภี จังหวัดเชียงใหม่ 50140",
        "tel": "0-5396-3926, 08-9755-2796",
        "lat": 18.757965,
        "lng": 98.968348
    },
    {
        "place": "บจ.วี.เอ็น.ออโต้บอดี้",
        "address": "178 ม.6 ถ.เชียงใหม่-หางดง ต.แม่เหียะ อ.เมือง จังหวัดเชียงใหม่ 50100",
        "tel": "053-805900,806900",
        "lat": 18.758114,
        "lng": 98.968777
    },
    {
        "place": "บจ.สรพันธ์เซอร์วิส",
        "address": "58/3 ม.12 ต.ท่าวังตาล ต.อ้อมเมือง อ.เมือง จังหวัดเชียงใหม่ 50140",
        "tel": "(053)816655,124454,(01)9439904,816655",
        "lat": 18.721351,
        "lng": 98.990317
    },
    {
        "place": "พี เซพตี้กลาส",
        "address": "28/1 ถ.บำรุงราษฎร์ ต.วัดเกต อ.เมือง จังหวัดเชียงใหม่ 50000",
        "tel": "(053)244372,241577",
        "lat": 18.831831,
        "lng": 99.024809
    },
    {
        "place": "หจก.สมานการช่าง",
        "address": "86 ถ.เชียงใหม่-ลำพูน ต.ในเมือง อ.เมือง จังหวัดเชียงใหม่ 50000",
        "tel": "(053)244559,249250-1,(01)9518930",
        "lat": 18.781930,
        "lng": 99.006881
    },
    {
        "place": "หจก.อู่ยิ่งเจริญ",
        "address": "85/1 ม.6 ถ.วงแหวนรอบ 2 ต.สันกลาง จังหวัดเชียงใหม่ 50130",
        "tel": "053-128367",
        "lat": 18.752516,
        "lng": 99.056667
    },
    {
        "place": "อู่หม่องบริการ (รถใหญ่)",
        "address": "363/2 ม.1 ซ.บุญรักษา 6 ถ.เชียงใหม่-ลำปาง ต.ท่าศาลา อ.เมืองเชียงใหม่ จังหวัดเชียงใหม่ 50000",
        "tel": "0-5385-1527,08-1716-5003,08-6429-6370",
        "lat": 18.772783,
        "lng": 99.034482
    },
    {
        "place": "บจ.นิวไดมอนด์",
        "address": "215/1 หมู่ 4 ต.สันผีเสื้อ ต.สันผีเสื้อ อ.เมือง จังหวัดเชียงใหม่ 50300",
        "tel": "053-110804-5",
        "lat": 18.854932,
        "lng": 98.999695
    },
    {
        "place": "บจ.เชียงใหม่ สยามรุ่งเรือง ฝาง",
        "address": "29 ม.10 ต.เวียง อ.ฝาง จังหวัดเชียงใหม่ 50110",
        "tel": "09-3134-0262, 09-3134-0263",
        "lat": 19.947933,
        "lng": 99.205417
    },
    {
        "place": "หจก.ยิ่งเจริญรุ่งเกียรติโชคชัย",
        "address": "408 ม.1 ต.แม่ข่า ต.แม่ข่า อ.ฝาง จังหวัดเชียงใหม่ 50320",
        "tel": "(053)884591-2,884600",
        "lat": 19.808700,
        "lng": 99.168048
    },
    {
        "place": "บจ.จรัญ ออโต้ กรุ๊ป",
        "address": "194 หมู่ที่ 11 ต.น้ำรึม อ.เมือง จังหวัดตาก 63000",
        "tel": "0-5551-2126",
        "lat": 16.867888,
        "lng": 99.136743
    },
    {
        "place": "หจก.อู่นครปฐม วี.ไอ.พี. (รถเล็ก)",
        "address": "157 ม.7 ต.แม่ปะ ต.แม่ปะ อ.แม่สอด จังหวัดตาก 63110",
        "tel": "(055)546707 , (055)801556",
        "lat": 16.756332,
        "lng": 98.573446
    },
    {
        "place": "หจก.อู่นครปฐม วี.ไอ.พี. (รถใหญ่)",
        "address": "157 ม.7 ต.แม่ปะ อ.แม่สอด จังหวัดตาก 63110",
        "tel": "-",
        "lat": 16.756332,
        "lng": 98.573446
    },
    {
        "place": "หจก.เอเซียการช่าง(ช่างลือ)",
        "address": "3/2 ถ.แม่สอด-อุ้มผาง อ.แม่สอด ต.แม่สอด อ.แม่สอด จังหวัดตาก 63110",
        "tel": "(055)533222,546522,533888",
        "lat": 16.723211,
        "lng": 98.597599
    }
]